{
    "courts": [
        {
            "address": "95 Gouin West",
            "google_address": {
                "address_components": [
                    {
                        "long_name": "Parc Nicolas-Viel",
                        "short_name": "Parc Nicolas-Viel",
                        "types": [
                            "establishment",
                            "point_of_interest"
                        ]
                    },
                    {
                        "long_name": "Ahuntsic",
                        "short_name": "Ahuntsic",
                        "types": [
                            "neighborhood",
                            "political"
                        ]
                    },
                    {
                        "long_name": "Ahuntsic-Cartierville",
                        "short_name": "Ahuntsic-Cartierville",
                        "types": [
                            "political",
                            "sublocality",
                            "sublocality_level_1"
                        ]
                    },
                    {
                        "long_name": "Montreal",
                        "short_name": "Montreal",
                        "types": [
                            "locality",
                            "political"
                        ]
                    },
                    {
                        "long_name": "Montreal",
                        "short_name": "Montreal",
                        "types": [
                            "administrative_area_level_2",
                            "political"
                        ]
                    },
                    {
                        "long_name": "Québec",
                        "short_name": "QC",
                        "types": [
                            "administrative_area_level_1",
                            "political"
                        ]
                    },
                    {
                        "long_name": "Canada",
                        "short_name": "CA",
                        "types": [
                            "country",
                            "political"
                        ]
                    },
                    {
                        "long_name": "H3L 1H9",
                        "short_name": "H3L 1H9",
                        "types": [
                            "postal_code"
                        ]
                    }
                ],
                "formatted_address": "Parc Nicolas-Viel, Montreal, QC H3L 1H9, Canada",
                "geometry": {
                    "location": {
                        "lat": 45.5511178,
                        "lng": -73.67652509999999
                    },
                    "location_type": "APPROXIMATE",
                    "viewport": {
                        "northeast": {
                            "lat": 45.5524667802915,
                            "lng": -73.6751761197085
                        },
                        "southwest": {
                            "lat": 45.5497688197085,
                            "lng": -73.6778740802915
                        }
                    }
                },
                "place_id": "ChIJt9Y3BqIYyUwR1cZySXKGrXY",
                "types": [
                    "establishment",
                    "park",
                    "point_of_interest"
                ]
            },
            "id": 1,
            "name": "NICOLAS-VIEL",
            "nbcourts": 9
        },
        {
            "address": "11301 L’Acadie Blvd",
            "id": 2,
            "name": "MARCELIN-WILSON",
            "nbcourts": 6
        },
        {
            "address": "9300 blvd Gouin Ouest",
            "id": 3,
            "name": "SARAGUAY",
            "nbcourts": 1
        },
        {
            "address": "9300 rue Saint-Denis",
            "id": 4,
            "name": "HENRI-JULIEN",
            "nbcourts": 4
        },
        {
            "address": "1000 ave Emile-Journault",
            "id": 5,
            "name": "COMPLEXE SPORTIF CLAUDE-ROBILLARD",
            "nbcourts": 12
        },
        {
            "address": "7070 ave de la Nantaise",
            "id": 6,
            "name": "DES ROSERALES",
            "nbcourts": 4
        },
        {
            "address": "7130 ave Goncourt",
            "id": 7,
            "name": "GONCOURT",
            "nbcourts": 2
        },
        {
            "address": "7051 ave de l’Alsace",
            "id": 8,
            "name": "LUCIE-BRUNEAU",
            "nbcourts": 5
        },
        {
            "address": "7501 ave Rondeau",
            "id": 9,
            "name": "ROGER-ROUSSEAU",
            "nbcourts": 4
        },
        {
            "address": "4900 Hampton",
            "id": 10,
            "name": "SOMERLED",
            "nbcourts": 12
        },
        {
            "address": "3220 Appleton",
            "id": 11,
            "name": "KENT",
            "nbcourts": 5
        },
        {
            "address": "Ave Royal between Ave Monkland & de Terrebonne",
            "id": 12,
            "name": "NDG YMCA",
            "nbcourts": 3
        },
        {
            "address": "1500 rue Remembrance",
            "id": 13,
            "name": "CENTRE DE TENNIS LACHINE",
            "nbcourts": 12
        },
        {
            "address": "4100 rue Provost",
            "id": 14,
            "name": "CARNIGAN",
            "nbcourts": 4
        },
        {
            "address": "695-54 ave",
            "id": 15,
            "name": "DIXIE",
            "nbcourts": 2
        },
        {
            "address": "330-80e ave",
            "id": 16,
            "name": "CAVELIER-DE-LASALLE",
            "nbcourts": 7
        },
        {
            "address": "55 chemin Latour",
            "id": 17,
            "name": "LACHARITE",
            "nbcourts": 4
        },
        {
            "address": "8600 rue Hardy",
            "id": 18,
            "name": "LEFEBVRE",
            "nbcourts": 3
        },
        {
            "address": "7540 rue Centrale",
            "id": 19,
            "name": "LEROUX",
            "nbcourts": 2
        },
        {
            "address": "300 rue Clement",
            "id": 20,
            "name": "MENARD",
            "nbcourts": 2
        },
        {
            "address": "9620 rue Dalmany",
            "id": 21,
            "name": "MOHWAK",
            "nbcourts": 2
        },
        {
            "address": "1407 rue Serre",
            "id": 22,
            "name": "OUELLETTE",
            "nbcourts": 3
        },
        {
            "address": "626-35 ave",
            "id": 23,
            "name": "FIVERSIDE",
            "nbcourts": 2
        },
        {
            "address": "Rembrandt Ave. near Kildare",
            "id": 24,
            "name": "REMBRANDT",
            "nbcourts": 2
        },
        {
            "address": "5850, avenue de Carignan",
            "id": 25,
            "name": "LOUIS RIEL",
            "nbcourts": 12
        },
        {
            "address": "4444 blvd Henri-Bourassa E",
            "id": 26,
            "name": "CALIXA-LAVALLEE",
            "nbcourts": 4
        },
        {
            "address": "6100 rue Pascal",
            "id": 27,
            "name": "Henri-Bourassa",
            "nbcourts": 4
        },
        {
            "address": "10341 ave de Lausanne",
            "id": 28,
            "name": "OTTAWA",
            "nbcourts": 2
        },
        {
            "address": "11135 ave des Recollets",
            "id": 29,
            "name": "PILON",
            "nbcourts": 4
        },
        {
            "address": "11614 ave Salk, 4 courts",
            "id": 30,
            "name": "ST. LAURENT",
            "nbcourts": 2
        },
        {
            "address": "4701 rue de Bayonne",
            "id": 31,
            "name": "SAUVÉ",
            "nbcourts": 3
        },
        {
            "address": "corner of Dumfries Rd and Dobie Ave",
            "id": 32,
            "name": "MOHAWK PARK",
            "nbcourts": 14
        },
        {
            "address": "1072 blvd Laird",
            "id": 33,
            "name": "CONNAUGHT PARK",
            "nbcourts": 6
        },
        {
            "address": "ave Querbes and ave Bernard",
            "id": 34,
            "name": "ST-VIATEUR",
            "nbcourts": 6
        },
        {
            "address": "ave Elmwood and ave Outremont",
            "id": 35,
            "name": "GARNEAU",
            "nbcourts": 4
        },
        {
            "address": "ave Rockland and ave Lajoie",
            "id": 36,
            "name": "JOYCE",
            "nbcourts": 3
        },
        {
            "address": "Roskilde Ave",
            "id": 37,
            "name": "OAKWOOD",
            "nbcourts": 1
        },
        {
            "address": "2255 du Havre",
            "id": 38,
            "name": "MÉDÉRIC MARTIN",
            "nbcourts": 4
        },
        {
            "address": "4420 ave de l’Esplanade",
            "id": 39,
            "name": "JEANNE-MANCE PARK",
            "nbcourts": 12
        },
        {
            "address": "3500 ave Émile-Duployé",
            "id": 40,
            "name": "LA FONTAINE",
            "nbcourts": 14
        },
        {
            "address": "1500 blvd du Tricentenaire",
            "id": 41,
            "name": "DANIEL JOHNSON",
            "nbcourts": 8
        },
        {
            "address": "4420 ave de l’Esplanade",
            "id": 42,
            "name": "JEANNE-MANCE PARK",
            "nbcourts": 12
        },
        {
            "address": "14002 Notre Dame",
            "id": 43,
            "name": "CLÉMENTINE DE LA ROUSSELIERE",
            "nbcourts": 3
        },
        {
            "address": "15200 Sherbrooke E.",
            "id": 44,
            "name": "POLY P.A.T.",
            "nbcourts": 8
        },
        {
            "address": "7650 blvd Maurice-Duplessis",
            "id": 45,
            "name": "CENTRE RECREATIF RDP",
            "nbcourts": 3
        },
        {
            "address": "6633-6 ave",
            "id": 46,
            "name": "BEAUBIEN",
            "nbcourts": 8
        },
        {
            "address": "Ste-Zotique and 19th Ave",
            "id": 47,
            "name": "STE-BERNADETTE",
            "nbcourts": 3
        },
        {
            "address": "Mont-Royal Ave. and André-Laurendeau",
            "id": 48,
            "name": "JEAN-DUCEPPE",
            "nbcourts": 3
        },
        {
            "address": "2999 rue Badeaux",
            "id": 49,
            "name": "ALEXIS-NIHON",
            "nbcourts": 3
        },
        {
            "address": "1740 ave O’Brien",
            "id": 50,
            "name": "COUSINEAU",
            "nbcourts": 2
        },
        {
            "address": "730 rue Buchanan",
            "id": 51,
            "name": "GOHIER",
            "nbcourts": 6
        },
        {
            "address": "1505 rue Cardinal",
            "id": 52,
            "name": "HARTENSTEIN",
            "nbcourts": 2
        },
        {
            "address": "2345 blvd Thimens",
            "id": 53,
            "name": "MARCEL-LAURIN",
            "nbcourts": 6
        },
        {
            "address": "2305 rue Beauzele",
            "id": 54,
            "name": "MARLBOROUGH",
            "nbcourts": 4
        },
        {
            "address": "2900 rue Baker",
            "id": 55,
            "name": "NOEL-NORD",
            "nbcourts": 2
        },
        {
            "address": "3025 rue Biret",
            "id": 56,
            "name": "NOEL-SUD",
            "nbcourts": 3
        },
        {
            "address": "260 rue Marcotte",
            "id": 57,
            "name": "PAINTER",
            "nbcourts": 3
        },
        {
            "address": "845 rue Poirier",
            "id": 58,
            "name": "ST-LAURENT",
            "nbcourts": 3
        },
        {
            "address": "4755 rue Valery",
            "id": 59,
            "name": "COUBERTIN",
            "nbcourts": 2
        },
        {
            "address": "6060 rue Honfleur",
            "id": 60,
            "name": "DELORME",
            "nbcourts": 6
        },
        {
            "address": "6020 blvd Lavoisier",
            "id": 61,
            "name": "FERLAND",
            "nbcourts": 4
        },
        {
            "address": "7125 rue Lienart",
            "id": 62,
            "name": "GUISEPPE-GARIBALDI",
            "nbcourts": 2
        },
        {
            "address": "7505 blvd Provencher",
            "id": 63,
            "name": "HEBERT",
            "nbcourts": 4
        },
        {
            "address": "7560 blvd Lacordaire",
            "id": 64,
            "name": "LADAUVERSIERE",
            "nbcourts": 4
        },
        {
            "address": "4550 rue Compiegne",
            "id": 65,
            "name": "LUIGI-PIRANDELLO",
            "nbcourts": 2
        },
        {
            "address": "5200 blvd Lavoisier",
            "id": 66,
            "name": "PIE-XII",
            "nbcourts": 4
        },
        {
            "address": "6907 rue Dumas",
            "id": 67,
            "name": "ST-JEAN-DE-MATHA",
            "nbcourts": 4
        },
        {
            "address": "5900 rue Drake",
            "id": 68,
            "name": "DE LA VÉRENDRYE",
            "nbcourts": 8
        },
        {
            "address": "Saint-Ambroise and Sir-Georges-Étienne-Cartier Square",
            "id": 69,
            "name": "ROLAND PROULX",
            "nbcourts": 2
        },
        {
            "address": "St. Phillipe and St. Emilie",
            "id": 70,
            "name": "JACQUES VIGER",
            "nbcourts": 2
        },
        {
            "address": "3750 blvd Gaetan-Laberge",
            "id": 71,
            "name": "ARTHUR-THERRIEN",
            "nbcourts": 6
        },
        {
            "address": "1650 rue Crawford",
            "id": 72,
            "name": "DE LA REINE-ELIZABETH",
            "nbcourts": 4
        },
        {
            "address": "1075 ave Brown",
            "id": 73,
            "name": "WILSON",
            "nbcourts": 4
        },
        {
            "address": "3750 blvd Gaetan-Laberge",
            "id": 74,
            "name": "ELGAR",
            "nbcourts": 6
        },
        {
            "address": "150 place de la Fontaine",
            "id": 75,
            "name": "DE LA FONTAINE",
            "nbcourts": 6
        },
        {
            "address": "285 Faillon W",
            "id": 76,
            "name": "JARRY",
            "nbcourts": 12
        },
        {
            "address": "7501 François-Perrault",
            "id": 77,
            "name": "FRANÇOIS PERRAULT",
            "nbcourts": 4
        },
        {
            "address": "8475 13e Ave",
            "id": 78,
            "name": "GEORGES-VERNOT",
            "nbcourts": 3
        },
        {
            "address": "between Upper Lansdowne and Upper Belmont",
            "id": 79,
            "name": "DEVON PARK",
            "nbcourts": 1
        },
        {
            "address": "corner Sherbrooke and Melville",
            "id": 80,
            "name": "WESTMOUNT PARK",
            "nbcourts": 7
        },
        {
            "address": "Côte St-Antoine and Murray",
            "id": 81,
            "name": "KING GEORGE PARK",
            "nbcourts": 4
        },
        {
            "address": "Ste-Catherine and Hallowell",
            "id": 82,
            "name": "WESTMOUNT ATHLETIC GROUNDS",
            "nbcourts": 2
        },
        {
            "address": "1 rue Stayner",
            "id": 83,
            "name": "STAYNER",
            "nbcourts": 2
        }
    ]
}